city,area_name,lat,lng,radius_m
台北市,大安區,25.0330,121.5435,1500
台北市,信義區,25.0335,121.5651,1500
台北市,中山區,25.0627,121.5337,1500
新北市,板橋區,25.0111,121.4628,1500
桃園市,中壢區,24.9540,121.2249,1500
台中市,西屯區,24.1814,120.6463,1500
台南市,中西區,22.9977,120.1950,1500
高雄市,苓雅區,22.6217,120.3110,1500
